City_ID,City,Country,Date,Lat,Lng,Max Temp,Humidity,Cloudiness,Wind Speed,Current Description,Rain inches (last 3hrs),Snow inches (last 3hrs)
0,Hermanus,ZA,2020-04-05 12:46:37,-34.42,19.23,69.01,68,56,8.01,broken clouds,0.0,0.0
1,Punta Arenas,CL,2020-04-05 12:45:44,-53.15,-70.92,39.2,80,20,23.04,few clouds,0.0,0.0
2,Busselton,AU,2020-04-05 12:39:36,-33.65,115.33,64.99,39,90,13.18,overcast clouds,0.0,0.0
3,Yar-Sale,RU,2020-04-05 12:39:45,66.83,70.83,33.6,99,100,6.64,overcast clouds,0.0,0.0
4,Torbay,CA,2020-04-05 12:43:05,47.67,-52.73,30.99,79,90,12.75,overcast clouds,0.0,0.0
5,Karak,JO,2020-04-05 12:46:39,31.17,35.75,86.0,17,100,6.93,haze,0.0,0.0
6,Havre-Saint-Pierre,CA,2020-04-05 12:39:20,50.23,-63.6,30.2,92,90,6.93,overcast clouds,0.0,0.0
7,Port Alfred,ZA,2020-04-05 12:39:25,-33.59,26.89,69.01,86,21,4.0,few clouds,0.0,0.0
8,Ushuaia,AR,2020-04-05 12:46:40,-54.8,-68.3,37.4,85,75,23.04,broken clouds,0.0,0.0
9,Jamestown,US,2020-04-05 12:44:47,42.1,-79.24,48.0,81,75,1.72,broken clouds,0.0,0.0
10,Kruisfontein,ZA,2020-04-05 12:46:41,-34.0,24.73,70.25,62,91,13.76,overcast clouds,0.0,0.0
11,Dikson,RU,2020-04-05 12:39:33,73.51,80.55,20.34,98,100,3.42,light snow,0.0,0.32
12,Bredasdorp,ZA,2020-04-05 12:44:08,-34.53,20.04,78.8,29,44,19.46,scattered clouds,0.0,0.0
13,Codrington,AU,2020-04-05 12:39:52,-38.27,141.97,54.03,77,68,11.92,light rain,0.35,0.0
14,Grand Gaube,MU,2020-04-05 12:39:17,-20.01,57.66,82.99,74,75,11.41,broken clouds,0.0,0.0
15,Vila Franca Do Campo,PT,2020-04-05 12:40:31,37.72,-25.43,59.0,93,75,12.75,broken clouds,0.0,0.0
16,Itupeva,BR,2020-04-05 12:46:43,-23.15,-47.06,70.0,68,2,8.05,clear sky,0.0,0.0
17,Melilla,ES,2020-04-05 12:46:43,35.29,-2.94,66.2,77,90,9.17,overcast clouds,0.0,0.0
18,Saint Anthony,US,2020-04-05 12:40:57,45.02,-93.22,32.0,92,75,5.82,broken clouds,0.0,0.0
19,Necochea,AR,2020-04-05 12:41:02,-38.55,-58.74,62.01,88,32,3.0,scattered clouds,0.0,0.0
20,Ilulissat,GL,2020-04-05 12:40:11,69.22,-51.1,6.8,50,0,24.16,clear sky,0.0,0.0
21,Khanpur,PK,2020-04-05 12:46:45,28.65,70.66,96.87,14,0,4.79,clear sky,0.0,0.0
22,Qaqortoq,GL,2020-04-05 12:41:17,60.72,-46.03,23.0,32,99,40.26,overcast clouds,0.0,0.0
23,Ponta Do Sol,PT,2020-04-05 12:39:55,32.67,-17.1,69.8,77,40,16.11,scattered clouds,0.0,0.0
24,Pimentel,PE,2020-04-05 12:41:51,-6.84,-79.93,66.2,29,77,10.29,light rain,0.61,0.0
25,Port Elizabeth,ZA,2020-04-05 12:46:46,-33.92,25.57,69.8,68,72,20.8,broken clouds,0.0,0.0
26,Longyearbyen,SJ,2020-04-05 12:39:43,78.22,15.64,5.0,60,20,6.93,few clouds,0.0,0.0
27,Marawi,PH,2020-04-05 12:40:34,8.0,124.29,69.28,73,33,2.55,light rain,0.14,0.0
28,Bambous Virieux,MU,2020-04-05 12:41:02,-20.34,57.76,82.99,74,75,11.41,broken clouds,0.0,0.0
29,Georgetown,MY,2020-04-05 12:38:43,5.41,100.34,78.8,100,20,1.12,thunderstorm with light rain,0.0,0.0
30,Muros,ES,2020-04-05 12:46:48,42.78,-9.06,61.0,93,90,14.99,light rain,0.0,0.0
31,Agadir,MA,2020-04-05 12:42:31,30.42,-9.6,75.2,50,28,10.29,scattered clouds,0.0,0.0
32,Dingle,PH,2020-04-05 12:39:52,11.0,122.67,79.79,71,0,7.2,clear sky,0.0,0.0
33,Nantucket,US,2020-04-05 12:40:41,41.28,-70.1,43.0,81,90,4.7,overcast clouds,0.0,0.0
34,Uri,IN,2020-04-05 12:46:50,34.08,74.03,59.07,29,100,2.28,light rain,0.54,0.0
35,Lubao,PH,2020-04-05 12:40:16,14.92,120.55,86.0,45,20,2.98,few clouds,0.0,0.0
36,Arraial Do Cabo,BR,2020-04-05 12:39:18,-22.97,-42.03,78.8,69,20,10.29,few clouds,0.0,0.0
37,Touros,BR,2020-04-05 12:40:03,-5.2,-35.46,86.0,79,75,6.93,broken clouds,0.0,0.0
38,Dwarka,IN,2020-04-05 12:41:05,22.24,68.97,80.47,70,3,14.72,clear sky,0.0,0.0
39,Qaanaaq,GL,2020-04-05 12:39:31,77.48,-69.36,16.32,85,100,7.4,overcast clouds,0.0,0.0
40,Namibe,AO,2020-04-05 12:40:49,-15.2,12.15,77.56,65,14,10.09,few clouds,0.0,0.0
41,Veinticinco De Mayo,AR,2020-04-05 12:46:53,-35.43,-60.17,62.11,60,27,5.57,scattered clouds,0.0,0.0
42,Sabratah,LY,2020-04-05 12:46:53,32.79,12.49,63.01,54,61,9.15,broken clouds,0.0,0.0
43,Oranjemund,NA,2020-04-05 12:46:53,-28.55,16.43,66.31,67,42,13.38,scattered clouds,0.0,0.0
44,San Carlos,VE,2020-04-05 12:46:54,9.66,-68.58,82.15,67,90,3.83,overcast clouds,0.0,0.0
45,Klaksvik,FO,2020-04-05 12:39:31,62.23,-6.59,46.4,87,100,31.09,light rain,0.0,0.0
46,Opatovice Nad Labem,CZ,2020-04-05 12:46:54,50.15,15.79,59.0,24,0,13.87,clear sky,0.0,0.0
47,Ushtobe,KZ,2020-04-05 12:40:51,45.25,77.98,72.43,23,98,3.74,overcast clouds,0.0,0.0
48,Praia Da Vitoria,PT,2020-04-05 12:46:56,38.73,-27.07,55.4,93,75,12.26,light rain,0.0,0.0
49,Husavik,IS,2020-04-05 12:39:26,66.04,-17.34,24.8,85,90,36.91,light snow,0.0,0.0
50,Rawicz,PL,2020-04-05 12:46:56,51.61,16.86,57.99,33,1,8.05,clear sky,0.0,0.0
51,East London,ZA,2020-04-05 12:46:57,-33.02,27.91,69.8,77,29,14.99,scattered clouds,0.0,0.0
52,Talavera,PH,2020-04-05 12:46:57,15.62,120.93,84.2,45,20,4.83,few clouds,0.0,0.0
53,Lebu,CL,2020-04-05 12:40:07,-37.62,-73.65,52.7,75,17,8.1,few clouds,0.0,0.0
54,Kasane,BW,2020-04-05 12:46:58,-17.82,25.15,86.0,45,40,6.93,scattered clouds,0.0,0.0
55,Pedernales,DO,2020-04-05 12:46:58,18.04,-71.74,73.4,94,20,4.7,few clouds,0.0,0.0
56,Falun,SE,2020-04-05 12:46:59,60.6,15.63,46.0,75,99,10.29,drizzle,0.0,0.0
57,San Matias,BO,2020-04-05 12:46:59,-16.37,-58.4,79.12,82,87,5.28,overcast clouds,0.0,0.0
58,Kecel,HU,2020-04-05 12:47:00,46.53,19.25,66.99,31,0,11.41,clear sky,0.0,0.0
59,Lagoa,PT,2020-04-05 12:39:48,39.05,-27.98,56.86,77,100,17.27,overcast clouds,0.0,0.0
60,Chuy,UY,2020-04-05 12:40:00,-33.7,-53.46,65.39,69,14,7.54,few clouds,0.0,0.0
61,Raudeberg,NO,2020-04-05 12:47:01,61.99,5.14,50.0,66,99,23.04,light rain,0.15,0.0
62,Rocha,UY,2020-04-05 12:41:03,-34.48,-54.33,66.42,60,0,6.71,clear sky,0.0,0.0
63,Umm Kaddadah,SD,2020-04-05 12:47:02,13.6,26.69,104.34,5,72,15.21,broken clouds,0.0,0.0
64,Anloga,GH,2020-04-05 12:42:11,5.79,0.9,89.6,59,20,9.17,few clouds,0.0,0.0
65,Cidreira,BR,2020-04-05 12:39:47,-30.18,-50.21,69.84,72,0,8.48,clear sky,0.0,0.0
66,Vigeland,NO,2020-04-05 12:47:03,58.08,7.3,50.0,57,80,13.87,broken clouds,0.0,0.0
67,Cape Town,ZA,2020-04-05 12:44:47,-33.93,18.42,68.0,64,75,18.34,broken clouds,0.0,0.0
68,Micheweni,TZ,2020-04-05 12:47:03,-4.97,39.83,85.5,66,49,9.84,light rain,0.44,0.0
69,Aurillac,FR,2020-04-05 12:41:47,44.92,2.45,69.01,31,0,16.11,clear sky,0.0,0.0
70,Pisco,PE,2020-04-05 12:47:04,-13.7,-76.22,71.6,30,75,3.36,mist,0.0,0.0
71,Pangnirtung,CA,2020-04-05 12:41:50,66.15,-65.71,10.74,77,0,7.29,clear sky,0.0,0.0
72,Victoria,HK,2020-04-05 12:40:00,22.29,114.16,64.4,88,40,5.82,scattered clouds,0.0,0.0
73,Krasnoarmeysk,RU,2020-04-05 12:39:30,51.02,45.7,52.0,7,20,7.0,few clouds,0.0,0.0
74,Sao Filipe,CV,2020-04-05 12:40:15,14.9,-24.5,74.95,71,2,16.13,clear sky,0.0,0.0
75,Vestmannaeyjar,IS,2020-04-05 12:41:07,63.44,-20.27,32.0,95,90,3.36,light snow,0.0,0.0
76,Kavaratti,IN,2020-04-05 12:41:56,10.57,72.64,89.6,62,20,5.82,few clouds,0.0,0.0
77,Saint-Philippe,RE,2020-04-05 12:47:06,-21.36,55.77,82.4,69,20,24.16,few clouds,0.0,0.0
78,Sorland,NO,2020-04-05 12:40:08,67.67,12.69,29.62,86,100,10.2,light snow,0.0,0.14
79,Hofn,IS,2020-04-05 12:40:05,64.25,-15.21,31.66,94,100,27.09,moderate rain,4.63,0.0
80,Vieux-Habitants,GP,2020-04-05 12:47:07,16.06,-61.77,82.4,74,75,10.29,broken clouds,0.0,0.0
81,Mar Del Plata,AR,2020-04-05 12:40:12,-38.0,-57.56,66.99,93,61,4.7,broken clouds,0.0,0.0
82,Cayenne,GF,2020-04-05 12:39:25,4.93,-52.33,84.2,74,90,9.17,overcast clouds,0.0,0.0
83,Ampanihy,MG,2020-04-05 12:42:00,-24.7,44.75,89.38,30,100,4.5,overcast clouds,0.0,0.0
84,Murwara,IN,2020-04-05 12:47:08,23.85,80.4,96.24,8,0,8.48,clear sky,0.0,0.0
85,Atar,MR,2020-04-05 12:47:09,20.52,-13.05,90.16,18,0,11.74,clear sky,0.0,0.0
86,Zapolyarnyy,RU,2020-04-05 12:41:15,69.42,30.81,28.4,68,100,21.92,light snow,0.0,0.9
87,Kisangani,CD,2020-04-05 12:40:00,0.52,25.2,78.62,72,100,4.45,light rain,1.58,0.0
88,Nouadhibou,MR,2020-04-05 12:47:10,20.93,-17.03,77.0,53,0,18.34,clear sky,0.0,0.0
89,Bengkulu,ID,2020-04-05 12:42:22,-3.8,102.27,79.86,81,100,3.42,moderate rain,4.0,0.0
90,Jalu,LY,2020-04-05 12:41:24,29.03,21.55,73.33,31,0,14.14,clear sky,0.0,0.0
91,Salalah,OM,2020-04-05 12:47:11,17.02,54.09,86.0,62,0,13.87,clear sky,0.0,0.0
92,Clyde River,CA,2020-04-05 12:40:45,70.47,-68.59,6.8,71,75,25.28,broken clouds,0.0,0.0
93,Lages,BR,2020-04-05 12:36:52,-27.82,-50.33,60.51,57,68,4.38,broken clouds,0.0,0.0
94,Illapel,CL,2020-04-05 12:47:12,-31.63,-71.17,66.38,55,100,0.94,overcast clouds,0.0,0.0
95,Crisan,RO,2020-04-05 12:47:12,44.97,29.47,59.0,21,38,24.16,scattered clouds,0.0,0.0
96,Tabou,CI,2020-04-05 12:41:53,4.42,-7.35,88.57,64,76,6.04,broken clouds,0.0,0.0
97,Zilair,RU,2020-04-05 12:47:13,52.23,57.44,45.5,62,55,8.81,broken clouds,0.0,0.0
98,Upernavik,GL,2020-04-05 12:39:32,72.79,-56.15,7.84,77,2,4.5,clear sky,0.0,0.0
99,Laguna,US,2020-04-05 12:40:25,38.42,-121.42,53.6,87,75,4.7,broken clouds,0.0,0.0
100,Hadejia,NG,2020-04-05 12:47:14,12.45,10.04,105.03,15,96,7.54,overcast clouds,0.0,0.0
101,Minas,UY,2020-04-05 12:47:14,-34.38,-55.24,64.4,72,16,5.82,few clouds,0.0,0.0
102,Korla,CN,2020-04-05 12:41:18,41.76,86.15,64.62,18,38,8.75,scattered clouds,0.0,0.0
103,Sao Jose Da Coroa Grande,BR,2020-04-05 12:40:08,-8.9,-35.15,84.51,75,81,9.33,broken clouds,0.0,0.0
104,Kormilovka,RU,2020-04-05 12:47:15,55.0,74.1,53.6,32,75,15.66,broken clouds,0.0,0.0
105,Siva,EG,2020-04-05 12:47:16,29.2,25.52,76.78,28,0,16.13,clear sky,0.0,0.0
106,Bourg-En-Bresse,FR,2020-04-05 12:47:16,46.17,5.17,70.0,24,0,17.22,clear sky,0.0,0.0
107,Hobyo,SO,2020-04-05 12:39:46,5.35,48.53,88.02,55,78,16.11,broken clouds,0.0,0.0
108,Luderitz,NA,2020-04-05 12:39:34,-26.65,15.16,64.4,72,14,11.41,few clouds,0.0,0.0
109,Porto Novo,BJ,2020-04-05 12:42:00,6.5,2.6,89.6,62,100,5.82,overcast clouds,0.0,0.0
110,Impfondo,CG,2020-04-05 12:47:17,1.64,18.07,100.0,31,66,3.06,broken clouds,0.0,0.0
111,Leh,IN,2020-04-05 12:47:18,34.17,77.58,26.89,22,97,1.59,overcast clouds,0.0,0.0
112,Maryville,US,2020-04-05 12:47:18,35.76,-83.97,55.99,76,90,1.39,overcast clouds,0.0,0.0
113,Narsaq,GL,2020-04-05 12:39:39,60.92,-46.05,23.0,32,100,40.26,overcast clouds,0.0,0.0
114,Ribeira Brava,PT,2020-04-05 12:47:19,32.65,-17.07,69.8,77,40,16.11,scattered clouds,0.0,0.0
115,Herat,AF,2020-04-05 12:47:19,34.5,62.0,71.6,37,75,4.7,shower rain,0.0,0.0
116,Castro,BR,2020-04-05 12:45:30,-24.79,-50.01,64.6,49,16,3.06,few clouds,0.0,0.0
117,North Miami Beach,US,2020-04-05 12:47:20,25.93,-80.16,78.01,73,1,5.86,clear sky,0.0,0.0
118,Naberera,TZ,2020-04-05 12:47:20,-4.2,36.93,74.68,49,54,7.4,moderate rain,3.38,0.0
119,Marfino,RU,2020-04-05 12:47:20,55.7,37.38,41.0,40,40,17.9,scattered clouds,0.0,0.0
120,Nanortalik,GL,2020-04-05 12:39:50,60.14,-45.24,26.19,80,70,23.73,broken clouds,0.0,0.0
121,Souillac,MU,2020-04-05 12:40:15,-20.52,57.52,82.99,74,75,11.41,broken clouds,0.0,0.0
122,Pauini,BR,2020-04-05 12:47:21,-7.71,-66.98,76.66,88,100,1.12,overcast clouds,0.0,0.0
123,Mezhdurechensk,RU,2020-04-05 12:47:22,53.69,88.06,43.03,57,0,5.64,clear sky,0.0,0.0
124,Honningsvag,NO,2020-04-05 12:47:22,70.98,25.97,32.49,84,62,14.63,broken clouds,0.0,0.0
125,Clarence Town,AU,2020-04-05 12:47:22,-32.58,151.78,64.99,59,0,6.93,clear sky,0.0,0.0
126,Koungou,YT,2020-04-05 12:47:23,-12.73,45.2,89.6,62,20,9.17,few clouds,0.0,0.0
127,Saint-Pierre,RE,2020-04-05 12:47:23,-21.34,55.48,82.4,69,20,24.16,few clouds,0.0,0.0
128,Bandarbeyla,SO,2020-04-05 12:47:23,9.49,50.81,85.12,52,95,9.53,overcast clouds,0.0,0.0
129,Vage,NO,2020-04-05 12:47:24,60.05,5.52,55.0,61,85,16.11,light rain,0.17,0.0
130,Novorzhev,RU,2020-04-05 12:47:24,57.03,29.33,44.37,51,69,12.28,broken clouds,0.0,0.0
131,Lisakovsk,KZ,2020-04-05 12:47:25,52.54,62.49,51.37,51,73,13.09,broken clouds,0.0,0.0
132,Coquimbo,CL,2020-04-05 12:42:12,-29.95,-71.34,57.2,93,20,3.36,few clouds,0.0,0.0
133,Neuquen,AR,2020-04-05 12:47:25,-38.95,-68.06,51.8,57,2,6.93,clear sky,0.0,0.0
134,Buraydah,SA,2020-04-05 12:41:19,26.33,43.98,93.2,30,0,9.17,clear sky,0.0,0.0
135,Daloa,CI,2020-04-05 12:47:26,6.88,-6.45,96.31,40,12,3.33,few clouds,0.0,0.0
136,Diamantino,BR,2020-04-05 12:47:26,-14.41,-56.45,79.07,75,96,3.78,overcast clouds,0.0,0.0
137,Santa Ana,US,2020-04-05 12:44:35,33.75,-117.87,59.0,82,90,3.36,light rain,0.25,0.0
138,Talnakh,RU,2020-04-05 12:47:27,69.49,88.4,32.0,93,40,24.61,light snow,0.0,0.0
139,Vuktyl,RU,2020-04-05 12:47:27,63.86,57.31,32.43,91,97,10.54,light snow,0.0,0.83
140,Turayf,SA,2020-04-05 12:47:28,31.67,38.66,86.0,22,100,18.34,overcast clouds,0.0,0.0
141,Bristol,US,2020-04-05 12:47:28,41.83,-71.17,45.0,87,90,3.47,overcast clouds,0.0,0.0
142,Hidrolandia,BR,2020-04-05 12:47:29,-4.41,-40.44,82.72,75,42,2.51,scattered clouds,0.0,0.0
143,Bata,GQ,2020-04-05 12:47:29,1.86,9.77,89.6,70,40,8.05,scattered clouds,0.0,0.0
144,Saint George,US,2020-04-05 12:36:02,37.1,-113.58,54.0,46,1,12.75,clear sky,0.0,0.0
145,Hithadhoo,MV,2020-04-05 12:39:28,-0.6,73.08,83.08,76,87,9.4,overcast clouds,0.0,0.0
146,Abrau-Dyurso,RU,2020-04-05 12:45:48,44.69,37.59,60.8,52,20,22.37,few clouds,0.0,0.0
147,Viedma,AR,2020-04-05 12:42:47,-40.81,-63.0,57.72,65,29,15.97,scattered clouds,0.0,0.0
148,Najran,SA,2020-04-05 12:41:04,17.49,44.13,93.2,24,5,6.93,dust,0.0,0.0
149,Chinsali,ZM,2020-04-05 12:47:32,-10.54,32.08,80.62,42,34,1.72,light rain,0.14,0.0
150,Tabas,IR,2020-04-05 12:47:32,33.6,56.92,75.54,14,33,17.74,scattered clouds,0.0,0.0
151,Araouane,ML,2020-04-05 12:41:56,18.9,-3.53,100.22,7,0,7.85,clear sky,0.0,0.0
152,Saldanha,ZA,2020-04-05 12:39:38,-33.01,17.94,69.8,56,100,12.75,overcast clouds,0.0,0.0
153,Nigel,ZA,2020-04-05 12:47:33,-26.43,28.48,73.99,43,0,7.11,clear sky,0.0,0.0
154,Rome,US,2020-04-05 12:47:33,34.26,-85.16,59.0,81,1,4.7,clear sky,0.0,0.0
155,Iqaluit,CA,2020-04-05 12:39:46,63.75,-68.51,-4.0,70,5,16.11,clear sky,0.0,0.0
156,San Cristobal,VE,2020-04-05 12:40:55,7.77,-72.22,80.6,69,40,4.7,scattered clouds,0.0,0.0
157,Catumbela,AO,2020-04-05 12:47:34,-12.43,13.55,82.27,74,27,8.7,light rain,0.66,0.0
158,Camargo,MX,2020-04-05 12:41:03,27.67,-105.17,62.1,31,100,4.52,overcast clouds,0.0,0.0
159,Aksum,ET,2020-04-05 12:47:35,14.12,38.72,87.42,7,8,15.68,clear sky,0.0,0.0
160,Snezhnogorsk,RU,2020-04-05 12:47:35,69.19,33.25,30.2,63,75,11.18,broken clouds,0.0,0.0
161,Caravelas,BR,2020-04-05 12:40:03,-17.71,-39.25,79.77,77,98,13.24,light rain,0.11,0.0
162,Oum Hadjer,TD,2020-04-05 12:47:36,13.3,19.7,108.45,10,52,2.21,broken clouds,0.0,0.0
163,Maldonado,UY,2020-04-05 12:42:23,-34.67,-54.92,64.4,72,7,5.82,clear sky,0.0,0.0
164,Mazamari,PE,2020-04-05 12:47:36,-11.33,-74.53,71.78,62,65,0.29,light rain,1.49,0.0
165,Caririacu,BR,2020-04-05 12:47:37,-7.04,-39.28,77.74,72,89,2.8,overcast clouds,0.0,0.0
166,Wattwil,CH,2020-04-05 12:47:37,47.3,9.09,64.99,39,0,3.36,clear sky,0.0,0.0
167,Tasiilaq,GL,2020-04-05 12:47:37,65.61,-37.64,14.0,47,20,5.82,few clouds,0.0,0.0
168,Saint-Augustin,CA,2020-04-05 12:47:38,51.23,-58.65,24.76,96,96,6.15,light snow,0.0,0.26
169,Rovaniemi,FI,2020-04-05 12:47:17,66.5,25.72,28.4,36,0,11.41,clear sky,0.0,0.0
170,Mogadishu,SO,2020-04-05 12:45:54,2.04,45.34,89.6,59,40,12.75,scattered clouds,0.0,0.0
171,Paamiut,GL,2020-04-05 12:42:13,61.99,-49.67,25.86,82,100,9.82,overcast clouds,0.0,0.0
172,Beinamar,TD,2020-04-05 12:47:39,8.67,15.38,112.05,16,46,2.93,scattered clouds,0.0,0.0
173,Marica,BR,2020-04-05 12:47:39,-22.92,-42.82,96.8,78,75,3.36,broken clouds,0.0,0.0
174,Bud,US,2020-04-05 12:41:38,39.45,-86.18,46.0,87,90,6.93,overcast clouds,0.0,0.0
175,Pionerskiy,RU,2020-04-05 12:43:46,54.95,20.23,53.6,46,0,6.71,clear sky,0.0,0.0
176,Uige,AO,2020-04-05 12:46:58,-7.61,15.06,80.6,74,75,6.93,broken clouds,0.0,0.0
177,Forio,IT,2020-04-05 12:47:41,40.73,13.86,68.0,28,40,17.22,scattered clouds,0.0,0.0
178,Sanchor,IN,2020-04-05 12:47:41,24.76,71.77,101.35,9,23,11.79,few clouds,0.0,0.0
179,Prozor,BA,2020-04-05 12:47:41,43.82,17.61,59.0,28,20,13.87,few clouds,0.0,0.0
180,Brekstad,NO,2020-04-05 12:47:42,63.69,9.67,39.99,69,75,23.04,light rain,0.0,0.0
181,Trinidad,BO,2020-04-05 12:37:10,-14.83,-64.9,78.8,94,75,1.9,broken clouds,0.0,0.0
182,Rengo,CL,2020-04-05 12:47:42,-34.42,-70.87,50.0,71,74,8.05,broken clouds,0.0,0.0
183,Zamosc,PL,2020-04-05 12:47:43,50.72,23.25,55.4,28,0,9.17,clear sky,0.0,0.0
184,Brae,GB,2020-04-05 12:40:47,60.4,-1.35,51.8,66,99,28.86,overcast clouds,0.0,0.0
185,Bama,NG,2020-04-05 12:47:43,11.52,13.69,107.47,14,16,5.93,few clouds,0.0,0.0
186,Sao Joao Da Barra,BR,2020-04-05 12:40:59,-21.64,-41.05,78.8,69,69,7.16,broken clouds,0.0,0.0
187,Kortkeros,RU,2020-04-05 12:47:44,61.81,51.58,37.4,29,40,8.95,scattered clouds,0.0,0.0
188,Mehamn,NO,2020-04-05 12:40:45,71.04,27.85,30.69,89,91,20.13,overcast clouds,0.0,0.0
189,Itarema,BR,2020-04-05 12:41:52,-2.92,-39.92,82.94,81,99,7.4,light rain,0.56,0.0
190,Mayumba,GA,2020-04-05 12:47:45,-3.43,10.66,83.14,78,100,2.8,light rain,0.17,0.0
191,Melrose,US,2020-04-05 12:47:46,42.46,-71.07,45.0,80,75,4.7,broken clouds,0.0,0.0
192,Ilhabela,BR,2020-04-05 12:47:46,-23.78,-45.36,74.82,66,34,1.95,scattered clouds,0.0,0.0
193,Aksu,CN,2020-04-05 12:47:47,41.12,80.26,68.09,15,0,0.87,clear sky,0.0,0.0
194,Odienne,CI,2020-04-05 12:47:47,9.51,-7.57,104.36,25,0,2.75,clear sky,0.0,0.0
195,Adrar,MR,2020-04-05 12:45:18,20.5,-10.07,90.19,12,0,11.92,clear sky,0.0,0.0
196,Mahebourg,MU,2020-04-05 12:47:48,-20.41,57.7,82.99,74,75,11.41,broken clouds,0.0,0.0
197,Santa Lucia,ES,2020-04-05 12:47:48,27.91,-15.54,72.0,73,20,5.82,few clouds,0.0,0.0
198,Kondinskoye,RU,2020-04-05 12:47:48,59.65,67.41,36.72,97,100,4.25,light rain,1.24,0.0
199,Aksarka,RU,2020-04-05 12:47:49,66.56,67.8,33.71,98,100,6.44,overcast clouds,0.0,0.0
200,Doctor Cecilio Baez,PY,2020-04-05 12:47:49,-25.05,-56.32,73.49,45,54,5.66,broken clouds,0.0,0.0
201,Ambilobe,MG,2020-04-05 12:42:51,-13.2,49.05,84.27,70,13,5.17,light rain,0.91,0.0
202,Berlevag,NO,2020-04-05 12:47:50,70.86,29.09,31.59,90,97,21.68,light snow,0.0,0.64
203,Bakchar,RU,2020-04-05 12:47:50,57.02,82.07,38.68,78,97,7.87,overcast clouds,0.0,0.0
204,Am Timan,TD,2020-04-05 12:47:51,11.03,20.28,110.26,12,97,4.99,overcast clouds,0.0,0.0
205,Andros Town,BS,2020-04-05 12:47:51,24.7,-77.77,78.01,83,20,4.68,few clouds,0.0,0.0
206,Puntarenas,CR,2020-04-05 12:47:52,9.98,-84.84,72.0,77,38,11.41,scattered clouds,0.0,0.0
207,Mangai,CD,2020-04-05 12:47:52,-4.05,19.53,97.86,35,37,1.54,scattered clouds,0.0,0.0
208,Desur,IN,2020-04-05 12:47:52,12.43,79.48,92.82,45,74,11.92,broken clouds,0.0,0.0
209,Shahdol,IN,2020-04-05 12:47:53,23.28,81.35,94.55,9,0,11.05,clear sky,0.0,0.0
210,Jumla,NP,2020-04-05 12:47:53,29.27,82.18,55.33,16,38,6.46,scattered clouds,0.0,0.0
211,Bubaque,GW,2020-04-05 12:47:53,11.28,-15.83,81.34,62,0,3.06,clear sky,0.0,0.0
212,Nouakchott,MR,2020-04-05 12:47:54,18.09,-15.98,87.8,38,0,16.11,clear sky,0.0,0.0
213,Karasjok,NO,2020-04-05 12:47:54,69.47,25.51,30.2,42,0,18.34,clear sky,0.0,0.0
214,Magadi,IN,2020-04-05 12:47:55,12.97,77.23,93.2,32,40,5.82,scattered clouds,0.0,0.0
215,Lokosovo,RU,2020-04-05 12:47:55,61.13,74.82,40.84,76,89,13.33,overcast clouds,0.0,0.0
216,Wukari,NG,2020-04-05 12:47:55,7.85,9.78,96.94,39,45,6.26,scattered clouds,0.0,0.0
217,Laukaa,RU,2020-04-05 12:47:56,58.74,29.85,39.94,58,66,13.85,broken clouds,0.0,0.0
218,San Andres,CO,2020-04-05 12:47:57,12.58,-81.7,80.6,78,20,8.05,few clouds,0.0,0.0
219,Talcahuano,CL,2020-04-05 12:47:57,-36.72,-73.12,44.6,87,0,3.36,clear sky,0.0,0.0
220,Coihaique,CL,2020-04-05 12:47:12,-45.58,-72.07,39.2,86,75,3.36,broken clouds,0.0,0.0
221,Benguela,AO,2020-04-05 12:47:58,-12.58,13.41,82.69,74,39,9.1,light rain,0.38,0.0
222,Letlhakeng,BW,2020-04-05 12:47:58,-24.09,25.03,85.24,14,0,5.93,clear sky,0.0,0.0
223,Lulea,SE,2020-04-05 12:44:05,65.58,22.15,33.8,34,20,13.87,few clouds,0.0,0.0
224,Cauquenes,CL,2020-04-05 12:47:59,-35.97,-72.32,47.53,77,3,4.36,clear sky,0.0,0.0
225,Price,US,2020-04-05 12:47:59,39.6,-110.81,39.0,51,20,2.1,few clouds,0.0,0.0
226,Port Blair,IN,2020-04-05 12:48:00,11.67,92.75,84.02,72,13,9.24,few clouds,0.0,0.0
227,Alta Floresta,BR,2020-04-05 12:44:50,-9.88,-56.09,82.4,88,75,2.24,broken clouds,0.0,0.0
228,Puerto Leguizamo,CO,2020-04-05 12:48:00,-0.19,-74.78,73.85,92,85,0.63,light rain,2.75,0.0
229,Birjand,IR,2020-04-05 12:48:01,32.87,59.22,68.0,25,40,20.8,sand,0.0,0.0
230,Pachino,IT,2020-04-05 12:48:01,36.72,15.09,64.4,52,0,5.82,clear sky,0.0,0.0
231,Oktyabrskoye,RU,2020-04-05 12:48:01,43.06,44.74,60.8,36,80,6.71,broken clouds,0.0,0.0
232,Rundu,NA,2020-04-05 12:48:02,-17.93,19.77,75.2,41,37,2.24,light rain,0.3,0.0
233,Muravlenko,RU,2020-04-05 12:48:02,63.79,74.52,32.74,96,100,15.43,snow,0.0,4.1
234,Powassan,CA,2020-04-05 12:48:02,46.03,-79.35,37.99,83,90,18.34,overcast clouds,0.0,0.0
235,Azad Shahr,IR,2020-04-05 12:48:03,34.79,48.57,62.6,29,0,9.17,clear sky,0.0,0.0
236,Gari,RU,2020-04-05 12:48:03,59.43,62.35,42.28,83,95,3.53,overcast clouds,0.0,0.0
237,Kodinar,IN,2020-04-05 12:48:04,20.79,70.7,87.85,43,0,12.15,clear sky,0.0,0.0
238,Balod,IN,2020-04-05 12:48:04,20.73,81.2,94.33,23,55,1.92,broken clouds,0.0,0.0
239,Salym,RU,2020-04-05 12:48:04,60.06,71.48,39.58,89,100,8.81,light rain,0.73,0.0
240,Freising,DE,2020-04-05 12:48:05,48.4,11.75,62.01,33,0,13.87,clear sky,0.0,0.0
241,Sao Felix Do Xingu,BR,2020-04-05 12:48:05,-6.64,-51.99,81.54,77,72,0.76,broken clouds,0.0,0.0
242,Saint-Jovite,CA,2020-04-05 12:48:05,46.12,-74.6,41.0,75,75,2.24,broken clouds,0.0,0.0
243,Bridlington,GB,2020-04-05 12:48:06,54.08,-0.19,66.2,48,35,12.75,scattered clouds,0.0,0.0
244,Padang,ID,2020-04-05 12:48:07,-0.95,100.35,79.02,77,90,0.74,overcast clouds,0.0,0.0
245,Cockburn Town,TC,2020-04-05 12:44:28,21.46,-71.14,75.06,57,0,5.55,clear sky,0.0,0.0
246,Cavalcante,BR,2020-04-05 12:48:08,-13.8,-47.46,80.06,52,80,1.9,broken clouds,0.0,0.0
247,Swellendam,ZA,2020-04-05 12:48:08,-34.02,20.44,78.8,29,94,19.46,overcast clouds,0.0,0.0
248,Barcelos,PT,2020-04-05 12:47:30,41.54,-8.62,60.8,93,75,17.22,light rain,0.0,0.0
249,Tromso,NO,2020-04-05 12:48:09,69.65,18.96,30.2,100,90,12.75,snow,0.0,0.0
250,General Roca,AR,2020-04-05 12:48:10,-39.03,-67.58,51.8,57,13,6.93,few clouds,0.0,0.0
251,Bathsheba,BB,2020-04-05 12:48:10,13.22,-59.52,84.2,70,40,14.99,scattered clouds,0.0,0.0
252,Polis,CY,2020-04-05 12:48:10,35.04,32.43,68.0,72,97,12.75,dust,0.0,0.0
253,Hammerfest,NO,2020-04-05 12:48:11,70.66,23.68,30.2,50,61,18.34,light snow,0.0,0.29
254,Ribeira Grande,PT,2020-04-05 12:48:11,38.52,-28.7,60.8,77,75,18.34,broken clouds,0.0,0.0
255,Yelan,RU,2020-04-05 12:48:12,50.95,43.74,50.0,27,33,5.99,scattered clouds,0.0,0.0
256,Palencia,ES,2020-04-05 12:48:12,42.42,-4.5,64.0,55,80,8.99,broken clouds,0.0,0.0
257,Bilma,NE,2020-04-05 12:48:12,18.69,12.92,106.45,6,0,4.61,clear sky,0.0,0.0
258,Quirinopolis,BR,2020-04-05 12:48:13,-18.45,-50.45,76.05,73,0,2.66,clear sky,0.0,0.0
259,Ostrovnoy,RU,2020-04-05 12:48:13,68.05,39.51,28.11,92,100,23.64,light snow,0.0,0.12
260,Goundam,ML,2020-04-05 12:48:13,16.41,-3.67,105.04,6,0,11.61,clear sky,0.0,0.0
261,Longonjo,AO,2020-04-05 12:48:14,-12.91,15.25,71.6,73,75,8.05,shower rain,0.0,0.0
262,Bereda,ES,2020-04-05 12:48:14,43.27,-7.54,66.0,87,40,14.99,light rain,0.0,0.0
263,Kadnikov,RU,2020-04-05 12:48:14,59.5,40.34,36.18,73,98,11.36,light snow,0.0,1.11
264,Bonavista,CA,2020-04-05 12:48:15,48.65,-53.11,28.99,89,100,4.0,overcast clouds,0.0,0.0
265,Krasnoborsk,RU,2020-04-05 12:48:15,61.56,45.93,36.27,76,33,3.78,light snow,0.0,0.84
266,Cimislia,MD,2020-04-05 12:48:15,46.52,28.78,62.01,15,0,16.11,clear sky,0.0,0.0
267,Benjamin Constant,BR,2020-04-05 12:48:15,-4.38,-70.03,73.4,100,90,1.05,light rain,0.0,0.0
268,Fundao,BR,2020-04-05 12:48:16,-19.93,-40.4,81.0,65,75,9.17,broken clouds,0.0,0.0
269,Tuni,IN,2020-04-05 12:48:16,17.35,82.55,86.58,57,14,9.28,few clouds,0.0,0.0
270,Pokhara,NP,2020-04-05 12:45:15,28.23,83.98,74.05,17,48,5.79,scattered clouds,0.0,0.0
271,Saint-Georges,GD,2020-04-05 12:48:17,12.06,-61.75,82.4,78,40,19.46,scattered clouds,0.0,0.0
272,Camana,PE,2020-04-05 12:48:17,-16.62,-72.71,73.0,70,70,3.04,broken clouds,0.0,0.0
273,Vestmanna,FO,2020-04-05 12:48:18,62.16,-7.17,46.4,87,100,31.09,light rain,0.0,0.0
274,Dom Pedrito,BR,2020-04-05 12:48:18,-30.98,-54.67,65.95,56,0,7.0,clear sky,0.0,0.0
275,Amarante Do Maranhao,BR,2020-04-05 12:48:18,-5.57,-46.74,79.68,84,51,2.75,light rain,2.69,0.0
276,Pochinok,RU,2020-04-05 12:48:19,54.41,32.44,42.82,52,27,19.26,scattered clouds,0.0,0.0
277,Male,MV,2020-04-05 12:48:19,4.17,73.51,87.8,70,20,5.82,few clouds,0.0,0.0
278,Wiesmoor,DE,2020-04-05 12:48:20,53.42,7.73,66.0,54,11,17.22,few clouds,0.0,0.0
279,Salinopolis,BR,2020-04-05 12:48:20,-0.61,-47.36,81.97,82,98,9.26,light rain,2.02,0.0
280,Salinas,US,2020-04-05 12:48:20,36.68,-121.66,53.6,81,90,13.87,light rain,0.0,0.0
281,Chipinge,ZW,2020-04-05 12:48:21,-20.19,32.62,78.85,37,24,2.51,light rain,0.2,0.0
282,Matcha,RU,2020-04-05 12:48:21,54.63,42.35,45.25,48,77,8.3,broken clouds,0.0,0.0
283,Santa Cruz,BO,2020-04-05 12:47:10,-17.8,-63.17,75.2,78,75,14.99,broken clouds,0.0,0.0
284,Praia,CV,2020-04-05 12:45:20,14.92,-23.51,77.0,61,40,23.04,scattered clouds,0.0,0.0
285,Sindor,RU,2020-04-05 12:48:22,62.86,51.89,31.1,89,90,9.35,light snow,0.0,0.2
286,Homa Bay,KE,2020-04-05 12:48:23,-0.53,34.46,84.2,54,75,6.93,broken clouds,0.0,0.0
287,Disna,BY,2020-04-05 12:48:23,55.57,28.2,46.92,47,20,13.65,few clouds,0.0,0.0
288,Tuzla,BA,2020-04-05 12:48:23,44.54,18.67,64.4,31,40,17.22,scattered clouds,0.0,0.0
289,Synya,RU,2020-04-05 12:48:24,65.37,58.04,32.5,95,100,6.67,light snow,0.0,1.25
290,Matara,LK,2020-04-05 12:48:24,5.95,80.54,84.65,65,24,4.94,few clouds,0.0,0.0
291,Arica,CL,2020-04-05 12:43:57,-18.48,-70.3,73.4,64,97,3.36,overcast clouds,0.0,0.0
292,Mugur-Aksy,RU,2020-04-05 12:48:25,50.35,90.5,24.51,49,68,6.2,broken clouds,0.0,0.0
293,Pitea,SE,2020-04-05 12:48:25,65.32,21.48,33.8,34,20,13.87,few clouds,0.0,0.0
294,Otavi,NA,2020-04-05 12:48:25,-19.65,17.33,80.1,26,2,5.93,clear sky,0.0,0.0
295,Sortland,NO,2020-04-05 12:48:26,68.69,15.42,32.0,89,40,25.28,scattered clouds,0.0,0.0
296,Darbhanga,IN,2020-04-05 12:48:26,26.17,85.9,93.16,10,0,8.57,clear sky,0.0,0.0
297,Aanekoski,FI,2020-04-05 12:48:26,62.69,25.82,37.99,34,28,16.11,scattered clouds,0.0,0.0
298,Thinadhoo,MV,2020-04-05 12:48:27,0.53,72.93,81.63,80,98,10.38,light rain,0.16,0.0
299,Mabaruma,GY,2020-04-05 12:48:27,8.2,-59.78,79.07,83,88,8.01,light rain,0.31,0.0
300,Pervomayskoye,RU,2020-04-05 12:48:28,43.92,46.71,64.31,43,98,7.23,overcast clouds,0.0,0.0
301,Vardo,NO,2020-04-05 12:48:28,70.37,31.11,32.0,93,99,21.92,light snow,0.0,0.42
302,Angoche,MZ,2020-04-05 12:48:28,-16.23,39.91,82.54,71,30,8.9,light rain,0.13,0.0
303,Bayan,CN,2020-04-05 12:48:29,46.08,127.4,38.7,56,0,2.98,clear sky,0.0,0.0
304,Arandis,NA,2020-04-05 12:48:29,-22.42,14.97,64.99,80,25,7.0,scattered clouds,0.0,0.0
305,Boueni,YT,2020-04-05 12:48:31,-12.9,45.08,89.6,62,20,9.17,few clouds,0.0,0.0
306,Marsa Matruh,EG,2020-04-05 12:48:31,31.35,27.25,65.84,63,20,21.23,few clouds,0.0,0.0
307,Hualmay,PE,2020-04-05 12:48:31,-11.1,-77.61,71.15,77,55,4.05,broken clouds,0.0,0.0
308,Pangoa,PE,2020-04-05 12:48:32,-12.12,-73.0,68.14,80,96,2.08,moderate rain,3.29,0.0
309,Copiapo,CL,2020-04-05 12:44:50,-27.37,-70.33,62.6,72,75,4.7,broken clouds,0.0,0.0
310,Tessalit,ML,2020-04-05 12:48:32,20.2,1.01,99.61,6,0,8.63,clear sky,0.0,0.0
311,Kindu,CD,2020-04-05 12:48:33,-2.95,25.95,83.28,57,98,3.22,overcast clouds,0.0,0.0
312,Dori,BF,2020-04-05 12:48:33,14.04,-0.03,104.79,6,37,5.32,scattered clouds,0.0,0.0
313,Richards Bay,ZA,2020-04-05 12:48:33,-28.78,32.04,82.85,56,0,14.43,clear sky,0.0,0.0
314,General Pico,AR,2020-04-05 12:44:44,-35.66,-63.76,62.69,67,89,4.29,overcast clouds,0.0,0.0
315,Asfi,MA,2020-04-05 12:46:57,32.3,-9.24,69.78,63,26,12.55,scattered clouds,0.0,0.0
316,Solano,US,2020-04-05 12:48:35,38.23,-121.95,54.0,93,90,6.93,overcast clouds,0.0,0.0
317,Puerto Ayacucho,VE,2020-04-05 12:48:35,5.66,-67.62,78.8,83,40,2.44,haze,0.0,0.0
318,Antsla,EE,2020-04-05 12:48:35,57.83,26.54,46.99,31,6,16.11,clear sky,0.0,0.0
319,Izhma,RU,2020-04-05 12:48:36,65.01,53.91,31.21,93,97,8.28,light snow,0.0,0.18
320,Rio Grande,BR,2020-04-05 12:48:36,-32.03,-52.1,68.0,82,1,4.7,clear sky,0.0,0.0
321,La Palma,US,2020-04-05 12:48:37,33.85,-118.05,59.0,82,90,3.36,overcast clouds,0.0,0.0
322,Pedra,BR,2020-04-05 12:48:37,-8.5,-36.94,80.56,60,43,6.02,scattered clouds,0.0,0.0
323,Manhay,BE,2020-04-05 12:48:37,50.29,5.68,71.01,25,0,12.75,clear sky,0.0,0.0
324,Barauna,BR,2020-04-05 12:48:38,-5.08,-37.62,85.1,68,79,8.77,light rain,0.25,0.0
325,Shorapur,IN,2020-04-05 12:48:38,16.52,76.75,99.01,15,38,7.85,scattered clouds,0.0,0.0
326,Mende,FR,2020-04-05 12:48:38,44.67,3.5,60.8,26,0,17.22,clear sky,0.0,0.0
327,Poli,TZ,2020-04-05 12:48:39,-3.33,36.8,86.0,69,40,6.93,scattered clouds,0.0,0.0
328,Krasnoselkup,RU,2020-04-05 12:48:39,65.7,82.47,32.94,97,100,20.36,light snow,0.0,0.94
329,Bondo,CD,2020-04-05 12:48:40,3.81,23.69,84.0,54,100,4.52,light rain,0.67,0.0
330,Skjervoy,NO,2020-04-05 12:48:40,70.03,20.97,26.6,86,90,23.04,shower snow,0.0,0.0
331,Inta,RU,2020-04-05 12:48:41,66.03,60.17,33.3,96,99,8.14,light snow,0.0,0.31
332,Santa Isabel,BR,2020-04-05 12:48:41,-23.32,-46.22,73.4,82,40,10.29,scattered clouds,0.0,0.0
333,Mecca,SA,2020-04-05 12:48:42,21.43,39.83,99.09,22,0,14.14,clear sky,0.0,0.0
334,Sokolow Podlaski,PL,2020-04-05 12:48:42,52.41,22.25,57.0,32,0,1.97,clear sky,0.0,0.0
335,Arlit,NE,2020-04-05 12:48:42,18.74,7.39,105.46,5,0,12.24,clear sky,0.0,0.0
336,Mezen,RU,2020-04-05 12:48:43,65.85,44.24,27.37,96,45,17.07,light snow,0.0,0.65
337,Carutapera,BR,2020-04-05 12:48:43,-1.2,-46.02,82.62,81,89,7.25,light rain,1.48,0.0
338,Harper,LR,2020-04-05 12:48:43,4.38,-7.72,88.02,65,44,7.52,scattered clouds,0.0,0.0
339,Henties Bay,NA,2020-04-05 12:48:44,-22.12,14.28,64.99,80,27,7.0,scattered clouds,0.0,0.0
340,Kabardinka,RU,2020-04-05 12:48:44,44.65,37.94,59.0,33,20,22.37,few clouds,0.0,0.0
341,Sechura,PE,2020-04-05 12:48:44,-5.56,-80.82,73.29,78,92,10.0,light rain,0.21,0.0
342,Correia Pinto,BR,2020-04-05 12:48:45,-27.58,-50.36,61.2,57,74,3.65,broken clouds,0.0,0.0
343,Omboue,GA,2020-04-05 12:48:45,-1.57,9.26,85.26,69,77,4.47,broken clouds,0.0,0.0
344,Doha,QA,2020-04-05 12:47:02,25.29,51.53,93.2,21,0,20.8,clear sky,0.0,0.0
345,Kalemie,CD,2020-04-05 12:48:46,-5.95,29.19,78.46,61,83,6.51,light rain,1.59,0.0
346,Lobito,AO,2020-04-05 12:48:46,-12.35,13.55,82.4,76,28,9.01,light rain,0.87,0.0
347,Kizilskoye,RU,2020-04-05 12:48:46,52.73,58.89,45.79,64,21,11.05,few clouds,0.0,0.0
348,Susangerd,IR,2020-04-05 12:48:47,31.56,48.18,89.6,14,7,6.93,clear sky,0.0,0.0
349,Karaton,ID,2020-04-05 12:48:47,-6.34,106.1,78.8,83,20,4.7,few clouds,0.0,0.0
350,Santona,ES,2020-04-05 12:48:48,43.44,-3.46,75.2,40,20,20.8,few clouds,0.0,0.0
351,Tabory,RU,2020-04-05 12:48:48,58.52,64.55,41.34,93,100,5.95,light rain,0.76,0.0
352,Progreso,MX,2020-04-05 12:48:48,21.28,-89.67,73.4,83,5,8.05,clear sky,0.0,0.0
353,Greer,US,2020-04-05 12:48:49,34.94,-82.23,59.0,87,1,3.36,clear sky,0.0,0.0
354,Sept-Iles,CA,2020-04-05 12:48:49,50.2,-66.38,30.99,92,90,2.24,overcast clouds,0.0,0.0
355,Millau,FR,2020-04-05 12:48:49,44.08,2.92,62.6,29,0,25.28,clear sky,0.0,0.0
356,Sestri Levante,IT,2020-04-05 12:48:50,44.27,9.4,68.0,28,0,18.34,clear sky,0.0,0.0
357,Harrisonburg,US,2020-04-05 12:44:51,38.45,-78.87,52.0,100,1,2.24,clear sky,0.0,0.0
358,Merrill,US,2020-04-05 12:48:51,45.18,-89.68,28.99,92,1,3.96,clear sky,0.0,0.0
359,Sao Sebastiao,BR,2020-04-05 12:48:51,-23.76,-45.41,75.16,65,36,2.01,scattered clouds,0.0,0.0
360,Constantine,DZ,2020-04-05 12:48:51,36.37,6.61,62.6,45,75,6.93,broken clouds,0.0,0.0
361,Iquitos,PE,2020-04-05 12:48:52,-3.75,-73.25,42.8,100,75,2.24,broken clouds,0.0,0.0
362,Ajdabiya,LY,2020-04-05 12:48:52,30.76,20.23,66.92,50,30,15.75,scattered clouds,0.0,0.0
363,Mount Clemens,US,2020-04-05 12:48:53,42.6,-82.88,43.0,100,90,8.05,light intensity drizzle,0.0,0.0
364,Nisia Floresta,BR,2020-04-05 12:48:53,-6.09,-35.21,86.0,79,75,6.93,broken clouds,0.0,0.0
365,Dalmatovo,RU,2020-04-05 12:48:53,56.26,62.94,46.2,74,52,5.64,broken clouds,0.0,0.0
366,Mairana,BO,2020-04-05 12:48:54,-18.12,-63.93,60.31,56,72,4.38,broken clouds,0.0,0.0
367,Beloha,MG,2020-04-05 12:48:55,-25.17,45.05,86.47,40,100,7.78,overcast clouds,0.0,0.0
368,Nanganga,TZ,2020-04-05 12:48:55,-10.38,39.15,86.76,59,98,0.65,light rain,0.37,0.0
369,Skibbereen,IE,2020-04-05 12:48:55,51.55,-9.27,51.8,93,75,25.28,light rain,0.0,0.0
370,Agirish,RU,2020-04-05 12:48:56,61.92,63.02,38.77,79,100,1.5,overcast clouds,0.0,0.0
371,Emba,KZ,2020-04-05 12:48:56,48.83,58.14,57.7,34,0,14.12,clear sky,0.0,0.0
372,Farrukhnagar,IN,2020-04-05 12:48:56,17.08,78.2,95.23,16,25,7.09,scattered clouds,0.0,0.0
373,Saint-Ambroise,CA,2020-04-05 12:48:57,48.55,-71.33,37.99,92,90,5.82,overcast clouds,0.0,0.0
374,Lindi,TZ,2020-04-05 12:48:57,-10.0,39.72,87.8,66,40,8.05,scattered clouds,0.0,0.0
375,Kulhudhuffushi,MV,2020-04-05 12:48:57,6.62,73.07,84.47,68,59,3.18,light rain,0.14,0.0
376,Diffa,NE,2020-04-05 12:48:58,13.32,12.61,108.37,8,74,1.19,broken clouds,0.0,0.0
377,Villazon,BO,2020-04-05 12:48:58,-22.09,-65.59,54.81,23,93,0.98,overcast clouds,0.0,0.0
378,Thabazimbi,ZA,2020-04-05 12:48:59,-24.59,27.41,80.01,40,0,1.01,clear sky,0.0,0.0
379,Chingirlau,KZ,2020-04-05 12:48:59,51.09,54.08,56.82,42,94,18.54,overcast clouds,0.0,0.0
380,Hambantota,LK,2020-04-05 12:48:59,6.12,81.12,86.0,79,20,4.7,few clouds,0.0,0.0
381,Aasiaat,GL,2020-04-05 12:49:00,68.71,-52.87,9.41,83,0,27.02,clear sky,0.0,0.0
382,San Juan Del Sur,NI,2020-04-05 12:49:00,11.25,-85.87,77.0,83,40,4.7,scattered clouds,0.0,0.0
383,Krasnokholm,RU,2020-04-05 12:49:00,51.6,54.16,56.77,37,88,18.5,overcast clouds,0.0,0.0
384,Jabinyanah,TN,2020-04-05 12:49:01,35.03,10.91,66.2,42,20,11.41,few clouds,0.0,0.0
385,Cabo Rojo,PR,2020-04-05 12:49:01,18.09,-67.15,82.0,76,1,4.7,clear sky,0.0,0.0
386,Roald,NO,2020-04-05 12:49:01,62.58,6.13,51.8,53,75,16.11,broken clouds,0.0,0.0
387,Tarko-Sale,RU,2020-04-05 12:49:01,64.92,77.78,34.0,89,100,22.46,snow,0.0,2.78
388,Carnarvon,AU,2020-04-05 12:49:02,-24.87,113.63,77.0,73,61,12.75,broken clouds,0.0,0.0
389,Chicama,PE,2020-04-05 12:49:02,-7.84,-79.15,68.0,88,20,6.93,mist,0.0,0.0
390,Gobabis,NA,2020-04-05 12:49:03,-22.45,18.97,82.4,37,18,3.36,few clouds,0.0,0.0
391,Tamasane,BW,2020-04-05 12:49:03,-22.42,27.4,87.8,40,20,5.82,few clouds,0.0,0.0
392,Kolda,SN,2020-04-05 12:49:03,12.88,-14.95,98.6,27,0,6.93,clear sky,0.0,0.0
393,Dhupgari,IN,2020-04-05 12:49:04,26.59,89.01,86.88,13,0,4.79,clear sky,0.0,0.0
394,Aripuana,BR,2020-04-05 12:49:04,-9.17,-60.63,76.95,90,100,0.38,light rain,0.26,0.0
395,Ilmajoki,FI,2020-04-05 12:49:05,62.73,22.57,39.0,37,0,11.41,clear sky,0.0,0.0
396,Mantua,IT,2020-04-05 12:49:05,45.17,10.78,69.01,38,0,4.7,clear sky,0.0,0.0
397,Malters,CH,2020-04-05 12:49:06,47.04,8.18,66.0,36,0,3.36,clear sky,0.0,0.0
398,Puerto Del Rosario,ES,2020-04-05 12:49:06,28.5,-13.86,75.2,83,40,9.17,scattered clouds,0.0,0.0
399,Saint-Joseph,RE,2020-04-05 12:49:06,-21.37,55.62,82.4,69,20,24.16,few clouds,0.0,0.0
400,Dovers,VC,2020-04-05 12:49:07,12.88,-61.18,80.6,83,75,6.93,broken clouds,0.0,0.0
401,Cotacachi,EC,2020-04-05 12:49:07,0.3,-78.27,57.2,93,90,3.36,fog,0.0,0.0
402,Riviere-Au-Renard,CA,2020-04-05 12:49:08,49.0,-64.4,28.4,86,20,1.39,few clouds,0.0,0.0
403,Port-Gentil,GA,2020-04-05 12:49:08,-0.72,8.78,89.6,55,20,8.05,few clouds,0.0,0.0
404,Aswan,EG,2020-04-05 12:49:09,24.09,32.91,104.38,6,0,3.38,clear sky,0.0,0.0
405,Itaituba,BR,2020-04-05 12:49:09,-4.28,-55.98,89.6,62,20,4.7,few clouds,0.0,0.0
406,Cururupu,BR,2020-04-05 12:49:10,-1.83,-44.87,81.16,87,95,4.92,moderate rain,4.04,0.0
407,Wajir,KE,2020-04-05 12:44:30,1.75,40.06,91.69,40,37,10.6,light rain,0.15,0.0
408,Lima,PE,2020-04-05 12:49:00,-12.04,-77.03,69.8,88,56,6.93,broken clouds,0.0,0.0
409,Corning,US,2020-04-05 12:49:11,42.14,-77.05,46.99,87,90,3.36,overcast clouds,0.0,0.0
410,Wilmington,US,2020-04-05 12:44:24,34.23,-77.94,55.99,87,1,6.93,clear sky,0.0,0.0
411,Umm Lajj,SA,2020-04-05 12:49:11,25.02,37.27,91.67,29,0,10.65,clear sky,0.0,0.0
412,Chabahar,IR,2020-04-05 12:49:12,25.29,60.64,87.55,35,58,13.13,broken clouds,0.0,0.0
413,Avallon,FR,2020-04-05 12:49:12,47.48,3.9,65.19,40,0,8.61,clear sky,0.0,0.0
414,Kutum,SD,2020-04-05 12:49:12,14.2,24.67,95.95,6,85,5.88,overcast clouds,0.0,0.0
415,Zubtsov,RU,2020-04-05 12:49:13,56.18,34.59,39.22,57,28,16.96,scattered clouds,0.0,0.0
416,Dudinka,RU,2020-04-05 12:49:13,69.41,86.18,32.0,97,40,24.61,light snow,0.0,0.0
417,Pocoes,BR,2020-04-05 12:49:14,-14.53,-40.37,76.28,64,87,4.59,light rain,0.11,0.0
418,Morondava,MG,2020-04-05 12:49:14,-20.28,44.28,83.66,69,16,10.02,light rain,1.34,0.0
419,Parrita,CR,2020-04-05 12:49:15,9.52,-84.32,66.2,77,79,11.41,broken clouds,0.0,0.0
420,Limon,CR,2020-04-05 12:49:15,10.0,-83.03,78.01,94,88,1.99,light rain,0.47,0.0
421,Elat,IL,2020-04-05 12:49:15,29.56,34.95,87.8,15,50,13.87,scattered clouds,0.0,0.0
422,San Antonio,US,2020-04-05 12:44:57,29.42,-98.49,57.2,100,90,6.93,mist,0.0,0.0
423,Faya,SA,2020-04-05 12:49:16,18.39,42.45,77.0,41,40,14.99,thunderstorm,0.0,0.0
424,Uray,RU,2020-04-05 12:49:16,60.12,64.78,38.37,94,100,6.06,light rain,0.12,0.0
425,Kargasok,RU,2020-04-05 12:49:17,59.06,80.86,37.04,83,98,11.45,overcast clouds,0.0,0.0
426,Saint Marys,US,2020-04-05 12:49:17,30.73,-81.55,70.0,94,90,6.93,overcast clouds,0.0,0.0
427,Mangan,IN,2020-04-05 12:49:17,27.52,88.53,71.82,18,25,4.23,scattered clouds,0.0,0.0
428,Kigoma,TZ,2020-04-05 12:49:18,-4.88,29.63,84.2,66,40,10.29,thunderstorm,0.0,0.0
429,Laurel,US,2020-04-05 12:49:18,39.1,-76.85,54.0,81,40,3.36,scattered clouds,0.0,0.0
430,Oranjestad,AW,2020-04-05 12:44:30,12.52,-70.03,82.4,78,75,18.34,broken clouds,0.0,0.0
431,Calama,CL,2020-04-05 12:49:19,-22.47,-68.93,55.4,62,100,12.75,overcast clouds,0.0,0.0
432,Ferrol,ES,2020-04-05 12:49:19,43.48,-8.24,61.0,87,40,14.99,light rain,0.0,0.0
433,Tuntum,BR,2020-04-05 12:49:19,-5.26,-44.65,82.96,80,80,1.99,broken clouds,0.0,0.0
434,Asyut,EG,2020-04-05 12:49:20,27.18,31.18,92.41,13,34,14.09,scattered clouds,0.0,0.0
435,Plaisance-Du-Touch,FR,2020-04-05 12:45:23,43.57,1.3,70.0,32,0,26.4,clear sky,0.0,0.0
436,Mercedes,AR,2020-04-05 12:49:20,-34.65,-59.43,70.0,69,41,1.01,scattered clouds,0.0,0.0
437,Vigrestad,NO,2020-04-05 12:49:21,58.57,5.7,55.4,47,89,19.46,overcast clouds,0.0,0.0
438,Los Llanos De Aridane,ES,2020-04-05 12:49:21,28.66,-17.92,77.0,61,20,6.93,few clouds,0.0,0.0
439,Kawambwa,ZM,2020-04-05 12:49:22,-9.79,29.08,81.75,40,20,1.28,few clouds,0.0,0.0
440,Parry Sound,CA,2020-04-05 12:49:22,45.35,-80.03,37.99,97,93,7.0,overcast clouds,0.0,0.0
441,Riyadh,SA,2020-04-05 12:48:35,24.69,46.72,91.4,15,3,11.41,clear sky,0.0,0.0
442,Teguise,ES,2020-04-05 12:49:23,29.06,-13.56,75.2,69,75,14.99,broken clouds,0.0,0.0
443,Panvel,IN,2020-04-05 12:49:23,18.98,73.1,87.8,62,0,11.41,clear sky,0.0,0.0
444,Nioro,GM,2020-04-05 12:49:23,13.35,-15.75,98.22,13,0,10.2,clear sky,0.0,0.0
445,Jaciara,BR,2020-04-05 12:49:24,-15.97,-54.97,77.23,81,3,3.47,clear sky,0.0,0.0
446,Lethem,GY,2020-04-05 12:49:24,3.38,-59.8,81.72,70,88,12.41,light rain,0.64,0.0
447,Boa Vista,BR,2020-04-05 12:47:25,2.82,-60.67,82.4,74,75,17.22,broken clouds,0.0,0.0
448,Nadym,RU,2020-04-05 12:49:25,65.53,72.52,34.07,99,100,6.93,overcast clouds,0.0,0.0
449,Palafrugell,ES,2020-04-05 12:49:25,41.92,3.16,69.01,47,0,13.87,clear sky,0.0,0.0
450,Kabul,AF,2020-04-05 12:45:41,34.5,69.42,66.2,41,40,11.41,scattered clouds,0.0,0.0
451,Jardim,BR,2020-04-05 12:45:15,-21.48,-56.14,79.0,59,0,4.85,clear sky,0.0,0.0
452,Kedrovyy,RU,2020-04-05 12:49:26,56.17,91.82,42.8,28,0,11.18,clear sky,0.0,0.0
453,Grindavik,IS,2020-04-05 12:49:27,63.84,-22.43,28.4,92,90,27.51,light snow,0.0,0.0
454,Busayra,JO,2020-04-05 12:49:27,30.74,35.61,81.25,10,91,13.29,overcast clouds,0.0,0.0
455,Horta,PT,2020-04-05 12:49:27,38.53,-28.63,60.8,77,75,18.34,broken clouds,0.0,0.0
456,Makariv,UA,2020-04-05 12:49:28,50.46,29.81,53.6,22,0,11.18,clear sky,0.0,0.0
457,Kang,BW,2020-04-05 12:49:29,-23.68,22.79,83.62,16,0,7.43,clear sky,0.0,0.0
458,Waldoboro,US,2020-04-05 12:49:30,44.1,-69.38,42.01,93,90,3.02,overcast clouds,0.0,0.0
459,Indiaroba,BR,2020-04-05 12:45:49,-11.52,-37.51,87.82,66,31,5.26,scattered clouds,0.0,0.0
460,Margate,GB,2020-04-05 12:49:31,51.38,1.39,63.0,42,0,12.75,clear sky,0.0,0.0
461,Inhambane,MZ,2020-04-05 12:49:31,-23.86,35.38,86.0,55,40,11.41,scattered clouds,0.0,0.0
462,Sur,OM,2020-04-05 12:49:31,22.57,59.53,92.98,24,77,6.33,broken clouds,0.0,0.0
463,Mallow,IE,2020-04-05 12:46:47,52.13,-8.63,55.4,93,75,25.28,light rain,0.0,0.0
464,Megion,RU,2020-04-05 12:49:32,61.03,76.11,44.6,36,70,17.9,broken clouds,0.0,0.0
465,Wick,GB,2020-04-05 12:49:32,58.43,-3.08,50.0,76,20,21.92,few clouds,0.0,0.0
466,Jurado,CO,2020-04-05 12:49:33,7.11,-77.76,77.02,85,82,1.72,light rain,0.17,0.0
467,Marovoay,MG,2020-04-05 12:49:33,-16.1,46.63,89.6,59,20,8.05,few clouds,0.0,0.0
468,Saint-Denis,FR,2020-04-05 12:49:33,48.92,2.33,70.0,32,0,10.29,clear sky,0.0,0.0
469,Sawakin,SD,2020-04-05 12:49:34,19.11,37.33,82.62,71,49,8.79,scattered clouds,0.0,0.0
470,Vila Velha,BR,2020-04-05 12:45:31,-20.33,-40.29,81.0,65,75,9.17,broken clouds,0.0,0.0
471,Wexford,IE,2020-04-05 12:49:35,52.33,-6.46,53.01,87,75,24.16,broken clouds,0.0,0.0
472,Maniitsoq,GL,2020-04-05 12:49:35,65.42,-52.9,22.05,77,0,5.12,clear sky,0.0,0.0
473,Bayji,IQ,2020-04-05 12:49:35,34.93,43.49,76.86,21,51,3.67,broken clouds,0.0,0.0
474,Gisenyi,RW,2020-04-05 12:49:16,-1.7,29.26,78.8,61,75,9.17,broken clouds,0.0,0.0
475,Sandnessjoen,NO,2020-04-05 12:49:36,66.02,12.63,35.6,47,20,9.17,few clouds,0.0,0.0
476,Izazi,TZ,2020-04-05 12:49:37,-7.2,35.73,80.6,57,75,5.82,light thunderstorm,0.0,0.0
477,Urumqi,CN,2020-04-05 12:49:37,43.8,87.6,66.2,13,88,4.47,overcast clouds,0.0,0.0
478,Kinango,KE,2020-04-05 12:49:38,-4.14,39.32,87.8,66,40,10.29,scattered clouds,0.0,0.0
479,Saint-Francois,FR,2020-04-05 12:49:38,46.42,3.91,69.8,39,0,14.99,clear sky,0.0,0.0
480,Battle Creek,US,2020-04-05 12:46:41,42.32,-85.18,39.2,84,75,10.29,broken clouds,0.0,0.0
481,Stromness,GB,2020-04-05 12:49:40,58.97,-3.3,50.0,71,64,28.86,broken clouds,0.0,0.0
482,Madimba,TZ,2020-04-05 12:49:40,-10.4,40.33,87.8,66,40,8.05,scattered clouds,0.0,0.0
483,Severnyy,RU,2020-04-05 12:49:40,50.68,36.55,50.0,25,32,22.37,scattered clouds,0.0,0.0
484,Adre,TD,2020-04-05 12:49:41,13.47,22.2,103.42,6,89,6.67,overcast clouds,0.0,0.0
485,Liverpool,GB,2020-04-05 12:48:53,53.41,-2.98,64.99,48,76,10.29,broken clouds,0.0,0.0
486,Vangaindrano,MG,2020-04-05 12:49:42,-23.35,47.6,78.94,65,100,4.9,overcast clouds,0.0,0.0
487,Coxim,BR,2020-04-05 12:49:43,-18.51,-54.76,79.68,75,0,5.5,clear sky,0.0,0.0
488,Joao Pinheiro,BR,2020-04-05 12:49:43,-17.74,-46.17,76.06,66,0,2.33,clear sky,0.0,0.0
489,Khalkhal,IR,2020-04-05 12:45:36,37.62,48.53,50.13,29,36,4.83,scattered clouds,0.0,0.0
490,Toktogul,KG,2020-04-05 12:49:44,41.87,72.94,61.07,25,88,0.34,light rain,0.14,0.0
491,Kotra,IN,2020-04-05 12:49:44,25.82,79.32,97.3,10,0,9.1,clear sky,0.0,0.0
492,Tiznit,MA,2020-04-05 12:49:45,29.58,-9.5,69.04,39,48,7.94,scattered clouds,0.0,0.0
493,Saint-Louis,SN,2020-04-05 12:49:45,16.33,-15.0,91.4,24,0,4.7,clear sky,0.0,0.0
494,Ramhormoz,IR,2020-04-05 12:49:46,31.28,49.6,84.15,14,13,9.37,few clouds,0.0,0.0
495,Ormara,PK,2020-04-05 12:49:46,25.21,64.64,86.58,38,25,10.92,scattered clouds,0.0,0.0
496,Laredo,US,2020-04-05 12:46:35,27.51,-99.51,62.6,100,90,9.17,mist,0.0,0.0
497,Banfora,BF,2020-04-05 12:49:47,10.63,-4.77,103.44,26,7,3.8,clear sky,0.0,0.0
498,La Rioja,ES,2020-04-05 12:49:47,42.25,-2.5,60.8,59,86,19.46,overcast clouds,0.0,0.0
499,Isla Mujeres,MX,2020-04-05 12:45:34,21.23,-86.73,75.2,83,20,6.98,few clouds,0.0,0.0
500,Quixada,BR,2020-04-05 12:49:48,-4.97,-39.02,82.24,73,49,6.44,scattered clouds,0.0,0.0
501,Comodoro Rivadavia,AR,2020-04-05 12:45:01,-45.87,-67.5,57.2,47,40,23.04,scattered clouds,0.0,0.0
502,Iturama,BR,2020-04-05 12:49:49,-19.73,-50.2,75.38,68,0,3.2,clear sky,0.0,0.0
503,Pillaro,EC,2020-04-05 12:49:49,-1.17,-78.53,68.0,100,75,5.82,broken clouds,0.0,0.0
504,Tonantins,BR,2020-04-05 12:49:49,-2.87,-67.8,76.59,92,100,0.94,overcast clouds,0.0,0.0
505,Savonlinna,FI,2020-04-05 12:49:50,61.87,28.88,36.0,37,3,20.8,clear sky,0.0,0.0
506,Trairi,BR,2020-04-05 12:48:35,-3.28,-39.27,83.34,78,100,7.67,light rain,0.99,0.0
507,Mitsamiouli,KM,2020-04-05 12:49:51,-11.38,43.28,89.6,66,40,8.05,scattered clouds,0.0,0.0
508,Murgab,TM,2020-04-05 12:49:51,37.5,61.97,77.0,41,75,13.87,broken clouds,0.0,0.0
509,Huarmey,PE,2020-04-05 12:49:51,-10.07,-78.15,73.08,75,56,4.56,broken clouds,0.0,0.0
510,Perevolotskiy,RU,2020-04-05 12:49:52,51.88,54.19,54.36,43,97,16.89,light rain,0.25,0.0
511,San Miguel,SV,2020-04-05 12:49:52,13.48,-88.18,77.16,83,25,1.25,light rain,0.33,0.0
512,Ancud,CL,2020-04-05 12:49:53,-41.87,-73.82,48.2,87,90,2.24,overcast clouds,0.0,0.0
513,Maroantsetra,MG,2020-04-05 12:49:53,-15.43,49.73,82.45,64,53,4.12,light rain,0.13,0.0
514,Poltavka,RU,2020-04-05 12:49:53,54.37,71.76,48.7,80,95,13.33,light rain,0.78,0.0
515,Vicuna,CL,2020-04-05 12:49:54,-30.03,-70.71,57.2,93,20,3.36,few clouds,0.0,0.0
516,Sisimiut,GL,2020-04-05 12:49:54,66.94,-53.67,18.28,81,0,2.66,clear sky,0.0,0.0
517,Paita,PE,2020-04-05 12:49:55,-5.09,-81.11,74.62,74,98,10.29,overcast clouds,0.0,0.0
518,Buenos Aires,AR,2020-04-05 12:46:25,-34.61,-58.38,72.0,72,40,5.82,scattered clouds,0.0,0.0
519,Pitimbu,BR,2020-04-05 12:49:55,-7.47,-34.81,87.8,74,44,9.17,light rain,0.18,0.0
520,Santa Cruz De La Palma,ES,2020-04-05 12:49:56,28.68,-17.76,77.0,61,20,6.93,few clouds,0.0,0.0
521,Sakakah,SA,2020-04-05 12:49:57,29.97,40.21,93.2,10,98,13.87,overcast clouds,0.0,0.0
522,Carballo,ES,2020-04-05 12:49:57,43.21,-8.69,61.0,87,40,14.99,light rain,0.0,0.0
523,Eirunepe,BR,2020-04-05 12:49:58,-6.66,-69.87,76.03,82,96,1.07,overcast clouds,0.0,0.0
524,Taoudenni,ML,2020-04-05 12:49:58,22.68,-3.98,97.63,8,0,7.07,clear sky,0.0,0.0
525,Kotka,FI,2020-04-05 12:49:58,60.47,26.95,43.0,25,62,16.11,broken clouds,0.0,0.0
526,Methoni,GR,2020-04-05 12:50:00,36.82,21.7,64.4,55,75,9.86,broken clouds,0.0,0.0
527,Karpathos,GR,2020-04-05 12:48:07,35.51,27.21,66.2,68,40,19.46,scattered clouds,0.0,0.0
528,Portel,BR,2020-04-05 12:50:03,-1.94,-50.82,80.64,88,95,3.47,light rain,0.46,0.0
529,Changji,CN,2020-04-05 12:47:46,44.02,87.32,68.0,11,80,6.71,broken clouds,0.0,0.0
530,Zavolzhsk,RU,2020-04-05 12:50:04,57.48,42.14,40.03,64,91,9.51,light snow,0.0,1.07
531,Punta Alta,AR,2020-04-05 12:50:04,-38.88,-62.07,59.72,69,79,7.11,broken clouds,0.0,0.0
532,Mirante Do Paranapanema,BR,2020-04-05 12:50:05,-22.29,-51.91,75.2,44,0,5.82,clear sky,0.0,0.0
533,Plettenberg Bay,ZA,2020-04-05 12:50:06,-34.05,23.37,67.68,71,67,9.24,broken clouds,0.0,0.0
534,Paris,FR,2020-04-05 12:48:49,48.85,2.35,70.0,34,0,11.41,clear sky,0.0,0.0
535,Bokoro,TD,2020-04-05 12:50:06,12.38,17.06,109.24,13,69,3.74,broken clouds,0.0,0.0
536,Asbestos,CA,2020-04-05 12:50:07,45.77,-71.93,43.0,80,75,2.24,broken clouds,0.0,0.0
537,San Vicente De Chucuri,CO,2020-04-05 12:50:07,6.88,-73.41,78.8,100,40,3.36,mist,0.0,0.0
538,Raahe,FI,2020-04-05 12:50:07,64.68,24.48,30.2,63,0,13.87,clear sky,0.0,0.0
539,Sadiqabad,PK,2020-04-05 12:50:08,28.31,70.13,98.01,12,0,6.64,clear sky,0.0,0.0
540,Meiganga,CM,2020-04-05 12:50:08,6.52,14.3,91.35,35,58,3.33,broken clouds,0.0,0.0
541,Quatre Cocos,MU,2020-04-05 12:50:09,-20.21,57.76,82.99,74,75,11.41,broken clouds,0.0,0.0
542,French Harbor,HN,2020-04-05 12:50:09,16.35,-86.43,79.29,81,6,10.42,clear sky,0.0,0.0
543,Pontal Do Parana,BR,2020-04-05 12:50:09,-25.65,-48.51,77.0,82,64,6.93,broken clouds,0.0,0.0
544,Bwanga,TZ,2020-04-05 12:50:10,-3.03,31.76,78.21,50,59,3.0,light rain,2.82,0.0
545,Bonfim,BR,2020-04-05 12:50:10,3.08,-59.95,82.54,70,97,6.38,light rain,2.51,0.0
546,Sinnamary,GF,2020-04-05 12:50:11,5.38,-52.95,81.68,78,99,14.88,light rain,0.22,0.0
547,Safaga,EG,2020-04-05 12:50:11,26.73,33.94,88.14,18,0,11.16,clear sky,0.0,0.0
548,San Rafael,AR,2020-04-05 12:50:12,-34.62,-68.33,62.37,41,64,5.06,broken clouds,0.0,0.0
549,Salvador,SV,2020-04-05 12:50:12,13.83,-88.92,78.8,94,20,2.24,mist,0.0,0.0
